City_ID,City,Country,Lat,Lng,Max Temp,Humidity,Cloudiness,Wind Speed,Current Description
0,Hasaki,JP,35.7333,140.8333,82.29,87,100,15.55,overcast clouds
1,Teguise,ES,29.0605,-13.564,75.42,61,0,19.57,clear sky
2,Matagami,CA,49.7502,-77.6328,68.11,34,0,5.75,clear sky
3,Butaritari,KI,3.0707,172.7902,81.68,79,49,12.35,scattered clouds
4,Unai,BR,-16.3575,-46.9061,67.15,53,3,1.92,clear sky
5,Beloha,MG,-25.1667,45.05,58.5,67,0,7.58,clear sky
6,Hearst,CA,49.6835,-83.6665,73.81,53,6,1.19,clear sky
7,Avarua,CK,-21.2078,-159.775,77.05,53,59,10.36,broken clouds
8,Lebu,CL,-37.6167,-73.65,48.83,85,96,11.63,overcast clouds
9,Gorom-Gorom,BF,14.4439,-0.2361,87.67,50,100,15.82,overcast clouds
10,Ushuaia,AR,-54.8,-68.3,28.06,80,40,18.41,scattered clouds
11,Provideniya,RU,64.3833,-173.3,49.73,89,100,11.12,overcast clouds
12,Punta Arenas,CL,-53.15,-70.9167,28.51,69,20,11.5,few clouds
13,San Juan,AR,-31.5375,-68.5364,64.74,11,20,10.96,few clouds
14,Codrington,AU,-38.2667,141.9667,48.58,83,5,10.18,clear sky
15,Vaini,TO,-21.2,-175.2,77.16,73,20,11.5,few clouds
16,Georgetown,MY,5.4112,100.3354,83.89,85,20,3.44,moderate rain
17,Ho Chi Minh City,VN,10.75,106.6667,77.02,94,75,2.3,mist
18,Longyearbyen,SJ,78.2186,15.6401,42.64,70,75,11.5,broken clouds
19,Airai,TL,-8.9266,125.4092,61.52,81,78,4.07,broken clouds
20,Acajutla,SV,13.5928,-89.8275,82.49,78,9,3.85,clear sky
21,Taoudenni,ML,22.6783,-3.9836,101.1,7,21,5.61,few clouds
22,Mega,ET,4.05,38.3,55.22,84,66,15.21,broken clouds
23,Port Alfred,ZA,-33.5906,26.891,63.18,70,0,5.99,clear sky
24,Hermanus,ZA,-34.4187,19.2345,48.79,81,3,8.55,clear sky
25,Klaksvik,FO,62.2266,-6.589,52.72,97,100,4.76,overcast clouds
26,Usogorsk,RU,63.4106,48.6872,60.87,63,68,1.23,broken clouds
27,Mar Del Plata,AR,-38.0023,-57.5575,55.09,94,100,11.01,mist
28,Hilo,US,19.7297,-155.09,88.29,78,75,11.5,broken clouds
29,Ribeira Brava,PT,32.65,-17.0667,75.13,45,2,1.79,clear sky
30,Kasongo-Lunda,CD,-6.4667,16.8167,68.22,38,44,1.16,scattered clouds
31,Asau,RO,46.4333,26.4,65.95,78,55,3.6,broken clouds
32,Jamestown,US,42.097,-79.2353,71.19,56,0,9.22,clear sky
33,Ankara,TR,39.9199,32.8543,63.79,86,75,4.61,broken clouds
34,Bar Harbor,US,44.3876,-68.2039,66.34,59,0,5.01,clear sky
35,Rikitea,PF,-23.1203,-134.9692,74.03,80,43,13.96,moderate rain
36,Saint Anthony,US,45.0205,-93.218,82.18,57,100,11.5,overcast clouds
37,Busselton,AU,-33.65,115.3333,55.0,70,66,16.44,broken clouds
38,Tayshet,RU,55.9342,98.0044,59.4,78,33,1.28,scattered clouds
39,Cape Town,ZA,-33.9258,18.4232,56.88,89,75,8.05,broken clouds
40,El Dorado,US,38.7666,-120.5177,86.63,32,0,5.01,clear sky
41,Dikson,RU,73.5069,80.5464,32.95,91,92,7.14,overcast clouds
42,Bambanglipuro,ID,-7.95,110.2833,75.63,84,10,8.01,clear sky
43,Hithadhoo,MV,-0.6,73.0833,83.17,75,66,7.31,broken clouds
44,East London,ZA,-33.0153,27.9116,72.19,34,0,12.37,clear sky
45,Kupino,RU,54.3663,77.2981,62.35,83,65,7.11,broken clouds
46,Bethel,US,41.3712,-73.414,78.67,57,39,4.7,scattered clouds
47,Pimenta Bueno,BR,-11.6725,-61.1936,78.44,52,11,1.05,few clouds
48,Nome,US,64.5011,-165.4064,72.16,55,0,18.41,clear sky
49,Bluff,NZ,-46.6,168.3333,43.81,70,59,5.08,broken clouds
50,Stephenville Crossing,CA,48.5,-58.4318,57.33,82,75,20.71,broken clouds
51,Yeppoon,AU,-23.1333,150.7333,58.78,56,0,9.42,clear sky
52,Rio Tinto,PT,41.1826,-8.5581,77.36,62,0,3.44,clear sky
53,Puerto Ayora,EC,-0.7393,-90.3518,71.55,92,98,7.0,overcast clouds
54,Yumen,CN,40.2833,97.2,77.65,23,76,6.08,broken clouds
55,Lorengau,PG,-2.0226,147.2712,83.52,76,86,11.83,overcast clouds
56,Kapaa,US,22.0752,-159.319,84.52,70,0,16.11,light rain
57,Upernavik,GL,72.7868,-56.1549,39.65,86,9,6.64,clear sky
58,Singleton,AU,-32.5667,151.1833,51.98,78,69,8.01,light rain
59,Adwa,ET,14.1646,38.8955,61.99,81,100,3.94,light rain
60,Mataura,NZ,-46.1927,168.8643,43.48,70,50,1.34,scattered clouds
61,Dingle,PH,10.9995,122.6711,80.2,86,79,10.89,broken clouds
62,Hobart,AU,-42.8794,147.3294,51.26,78,75,4.61,broken clouds
63,Iqaluit,CA,63.7506,-68.5145,40.73,80,20,8.05,few clouds
64,Elko,US,41.0002,-115.5012,91.42,9,12,15.99,few clouds
65,Huangnihe,CN,43.5583,128.0239,66.88,89,92,3.85,overcast clouds
66,Kavaratti,IN,10.5669,72.642,81.09,81,98,21.99,overcast clouds
67,Naze,JP,28.3667,129.4833,85.12,82,7,7.29,clear sky
68,Saint George,US,37.1041,-113.5841,107.64,10,0,17.27,clear sky
69,Sao Joao Da Barra,BR,-21.6403,-41.0511,72.07,82,4,16.69,clear sky
70,Tiksi,RU,71.6872,128.8694,56.12,51,99,8.86,overcast clouds
71,Katsuura,JP,35.1333,140.3,75.63,90,100,11.81,overcast clouds
72,Batangafo,CF,7.3008,18.2833,70.14,97,96,6.29,light rain
73,Yulara,AU,-25.2406,130.9889,47.3,54,0,9.08,clear sky
74,Abu Samrah,SY,35.3029,37.1841,72.48,58,0,14.34,clear sky
75,Tuktoyaktuk,CA,69.4541,-133.0374,50.0,93,100,6.91,mist
76,Norman Wells,CA,65.282,-126.8329,82.44,39,75,14.97,smoke
77,San Patricio,US,28.017,-97.5169,94.53,51,29,16.02,scattered clouds
78,Pskov,RU,57.8136,28.3496,51.71,100,0,2.24,clear sky
79,Esperance,AU,-33.8667,121.9,57.04,71,63,22.08,broken clouds
80,Bubaque,GW,11.2833,-15.8333,80.51,84,89,11.54,light rain
81,Isangel,VU,-19.55,169.2667,80.71,78,75,5.75,broken clouds
82,San Quintin,MX,30.4833,-115.95,72.32,70,29,16.35,scattered clouds
83,Qaanaaq,GL,77.484,-69.3632,43.14,78,20,1.59,few clouds
84,Halifax,CA,44.6453,-63.5724,66.2,54,1,6.91,clear sky
85,Kodiak,US,57.79,-152.4072,56.71,82,100,10.36,overcast clouds
86,Torbay,CA,47.6666,-52.7314,57.27,88,75,10.36,broken clouds
87,Veseli Nad Luznici,CZ,49.1843,14.6973,56.34,94,96,4.5,overcast clouds
88,Barcelona,ES,41.3888,2.159,78.87,63,0,5.01,clear sky
89,Guarapari,BR,-20.6667,-40.4975,66.88,84,24,8.7,few clouds
90,Berlevag,NO,70.8578,29.0864,53.55,82,75,0.0,broken clouds
91,Shirokiy,RU,49.758,129.523,69.06,74,70,13.15,broken clouds
92,Dunedin,NZ,-45.8742,170.5036,43.79,66,20,4.27,few clouds
93,Shimoda,JP,34.6667,138.95,80.96,88,100,4.83,light rain
94,Tasiilaq,GL,65.6145,-37.6368,42.96,74,100,1.59,overcast clouds
95,Grodzisk Wielkopolski,PL,52.2276,16.3653,57.96,86,98,10.45,overcast clouds
96,Bredasdorp,ZA,-34.5322,20.0403,49.89,83,0,5.1,clear sky
97,Yuli,NG,9.6989,10.2744,73.69,91,100,6.17,light rain
98,Lake Havasu City,US,34.4839,-114.3224,112.23,7,0,10.36,clear sky
99,Sadu,RO,45.6667,24.1833,59.49,88,0,3.44,clear sky
100,Flin Flon,CA,54.7682,-101.865,72.25,65,2,7.38,clear sky
101,Morgan City,US,29.6994,-91.2068,81.99,85,93,6.24,overcast clouds
102,Sao Domingos,BR,-13.3983,-46.3183,67.84,52,0,11.9,clear sky
103,Novoilinsk,RU,51.6829,108.7143,68.13,44,12,10.18,few clouds
104,Vila Velha,BR,-20.3297,-40.2925,66.94,94,40,2.3,scattered clouds
105,Souillac,MU,-20.5167,57.5167,66.58,82,40,10.36,light rain
106,Nikolskoye,RU,59.7035,30.7861,59.81,97,80,2.86,broken clouds
107,Harrismith,ZA,-28.2728,29.1295,42.75,69,0,12.44,clear sky
108,Albany,US,42.6001,-73.9662,72.25,55,15,3.74,few clouds
109,Longyan,CN,25.1072,117.0225,86.27,67,48,2.93,scattered clouds
110,Thompson,CA,55.7435,-97.8558,71.76,83,75,3.44,broken clouds
111,Todos Santos,MX,23.45,-110.2167,95.05,71,83,4.14,broken clouds
112,Castro,BR,-24.7911,-50.0119,54.95,83,19,3.83,few clouds
113,Kaeo,NZ,-35.1,173.7833,65.32,91,100,4.68,overcast clouds
114,Tawau,MY,4.2498,117.8871,73.53,82,100,2.24,light rain
115,Nanortalik,GL,60.1432,-45.2371,41.54,94,54,8.48,broken clouds
116,Faanui,PF,-16.4833,-151.75,78.12,72,82,18.88,broken clouds
117,Fortuna,US,40.5982,-124.1573,70.93,71,20,5.99,few clouds
118,Bambous Virieux,MU,-20.3428,57.7575,66.45,82,40,10.36,light rain
119,Mossendjo,CG,-2.9506,12.7261,61.74,97,64,2.35,broken clouds
120,Aykhal,RU,66.0,111.5,64.63,47,37,11.12,scattered clouds
121,Hvolsvollur,IS,63.7533,-20.2243,51.08,91,100,13.04,overcast clouds
122,Atar,MR,20.5169,-13.0499,92.57,28,0,13.78,clear sky
123,Mayskiy,RU,47.6931,40.1025,76.41,37,97,10.63,overcast clouds
124,Eydhafushi,MV,5.1033,73.0708,81.63,79,76,15.57,broken clouds
125,Khandyga,RU,62.6667,135.6,80.13,38,74,5.97,broken clouds
126,Chokurdakh,RU,70.6333,147.9167,62.17,35,0,9.13,clear sky
127,Husavik,IS,66.0449,-17.3389,53.51,82,92,5.55,overcast clouds
128,Mahebourg,MU,-20.4081,57.7,66.49,82,40,10.36,scattered clouds
129,Saint-Philippe,RE,-21.3585,55.7679,65.79,74,64,14.14,broken clouds
130,Senanga,ZM,-16.1167,23.2667,52.83,63,0,5.1,clear sky
131,Kutum,SD,14.2,24.6667,79.39,41,91,4.14,overcast clouds
132,Ternate,ID,0.8,127.4,83.28,71,100,2.26,overcast clouds
133,Ajaccio,FR,42.0,8.9167,66.25,60,0,6.91,clear sky
134,Zhigansk,RU,66.7697,123.3711,58.32,60,92,4.65,overcast clouds
135,Ossora,RU,59.2353,163.0719,65.55,77,58,7.92,broken clouds
136,Strausberg,DE,52.5786,13.8874,58.6,79,53,10.02,broken clouds
137,Mairana,BO,-18.1167,-63.9333,53.82,93,34,3.44,scattered clouds
138,Atuona,PF,-9.8,-139.0333,77.79,75,7,18.43,clear sky
139,Laureles,US,26.1092,-97.4941,93.34,65,0,17.27,clear sky
140,Fonte Boa,BR,-2.4959,-66.2662,73.29,98,100,1.95,moderate rain
141,Ormara,PK,25.2088,64.6357,82.98,83,93,6.46,overcast clouds
142,Rio Grande,BR,-32.035,-52.0986,60.91,91,100,14.97,overcast clouds
143,Rawson,AR,-43.3002,-65.1023,47.62,61,100,4.92,overcast clouds
144,Ploemeur,FR,47.7333,-3.4333,67.82,74,0,10.36,clear sky
145,Buy,RU,58.4786,41.53,58.57,87,98,4.61,light rain
146,Constitucion,CL,-35.3333,-72.4167,51.33,85,100,9.73,overcast clouds
147,Ahipara,NZ,-35.1667,173.1667,63.19,72,100,5.77,overcast clouds
148,Kijang,KR,35.2442,129.2139,83.93,79,82,8.55,broken clouds
149,Novopokrovka,UA,49.8425,36.5477,69.15,54,100,4.76,overcast clouds
150,Finnsnes,NO,69.2296,17.9811,50.76,87,44,2.1,light rain
151,Osypenko,UA,46.9136,36.8253,69.1,50,12,3.76,few clouds
152,Port Arthur,CN,38.8,121.2667,79.02,89,100,10.51,overcast clouds
153,Severo-Kurilsk,RU,50.6789,156.125,59.94,81,100,12.39,overcast clouds
154,Leningradskiy,RU,69.3833,178.4167,36.48,91,100,8.7,overcast clouds
155,Godda,IN,24.8333,87.2167,83.57,74,8,9.15,clear sky
156,Banamba,ML,13.55,-7.45,80.19,69,78,8.9,broken clouds
157,Chapais,CA,49.7834,-74.8492,64.18,55,9,4.65,clear sky
158,Sao Filipe,CV,14.8961,-24.4956,74.01,84,39,8.68,scattered clouds
159,Ribeira Grande,PT,38.5167,-28.7,68.14,77,98,10.56,overcast clouds
160,Yellowknife,CA,62.456,-114.3525,73.92,53,75,4.61,smoke
161,Mizan Teferi,ET,6.9833,35.5833,60.13,98,100,1.77,light rain
162,Fukue,JP,32.6881,128.8419,82.76,78,40,8.05,scattered clouds
163,Dehloran,IR,32.6941,47.2679,93.04,17,0,4.23,clear sky
164,Pisco,PE,-13.7,-76.2167,61.02,88,0,12.66,clear sky
165,Kindu,CD,-2.95,25.95,67.32,47,1,2.57,clear sky
166,Hanna,CA,51.6334,-111.9018,77.86,39,4,4.0,clear sky
167,Gniezno,PL,52.5348,17.5826,56.39,93,5,8.03,clear sky
168,Gloucester,GB,51.8657,-2.2431,61.68,74,0,5.77,clear sky
169,Crestview,US,30.7621,-86.5705,84.25,91,40,5.75,moderate rain
170,Adrar,MR,20.5022,-10.0711,97.05,16,1,10.22,clear sky
171,Vila Franca Do Campo,PT,37.7167,-25.4333,68.2,85,5,6.26,clear sky
172,Bilgi,IN,16.35,75.6167,71.11,90,100,15.7,moderate rain
173,Barra Do Bugres,BR,-15.0725,-57.1811,74.97,50,86,1.28,overcast clouds
174,Stromness,GB,58.965,-3.296,55.36,91,100,15.01,moderate rain
175,Ust-Maya,RU,60.4167,134.5333,82.99,48,100,10.83,overcast clouds
176,Buala,SB,-8.145,159.5921,84.65,67,16,6.82,few clouds
177,Ancud,CL,-41.8697,-73.8203,45.23,87,100,11.81,light rain
178,Saskylakh,RU,71.9167,114.0833,51.3,72,100,6.78,overcast clouds
179,Ibimirim,BR,-8.5406,-37.6903,69.84,91,79,11.05,broken clouds
180,Palmer,US,42.1584,-72.3287,76.6,58,20,8.05,few clouds
181,Libreville,GA,0.3925,9.4537,74.48,77,80,9.01,broken clouds
182,Barrow,US,71.2906,-156.7887,57.22,67,0,11.5,clear sky
183,Phangnga,TH,8.4509,98.5298,82.44,89,100,7.96,overcast clouds
184,Kaitangata,NZ,-46.2817,169.8464,44.65,65,8,4.47,clear sky
185,Kavieng,PG,-2.5744,150.7967,84.52,64,50,12.1,scattered clouds
186,Havre-Saint-Pierre,CA,50.2334,-63.5986,61.16,63,100,12.66,overcast clouds
187,Paita,PE,-5.0892,-81.1144,64.94,79,44,17.74,scattered clouds
188,Abha,SA,18.2164,42.5053,64.22,55,40,11.5,scattered clouds
189,Hambantota,LK,6.1241,81.1185,79.14,78,40,5.75,scattered clouds
190,Kieta,PG,-6.2167,155.6333,84.78,65,42,8.57,scattered clouds
191,Bereznik,RU,62.8551,42.7072,55.94,79,100,1.66,overcast clouds
192,Vestmannaeyjar,IS,63.4427,-20.2734,52.23,89,100,15.79,overcast clouds
193,Santa Isabel Do Rio Negro,BR,-0.4139,-65.0192,73.26,99,100,2.19,overcast clouds
194,Anadyr,RU,64.75,177.4833,55.9,94,75,8.95,light rain
195,Uni,RU,57.7535,51.4923,61.43,94,100,4.88,overcast clouds
196,Namibe,AO,-15.1961,12.1522,62.37,83,0,2.57,clear sky
197,Kilindoni,TZ,-7.9139,39.6668,75.87,72,0,18.81,clear sky
198,Harnosand,SE,62.6323,17.9379,53.01,91,100,13.94,overcast clouds
199,Bengkulu,ID,-3.8004,102.2655,77.23,80,100,3.58,overcast clouds
200,Japura,ID,-0.3167,102.35,76.41,92,47,3.58,light rain
201,Mamallapuram,IN,12.6264,80.1722,82.45,66,100,14.07,light rain
202,Valley City,US,46.9233,-98.0032,82.92,65,40,11.5,scattered clouds
203,Ostrovnoy,RU,68.0531,39.5131,46.81,91,90,4.0,overcast clouds
204,Mnogovershinnyy,RU,53.9353,139.9242,79.92,51,82,3.09,broken clouds
205,Hofn,IS,64.2539,-15.2082,49.95,91,100,8.21,overcast clouds
206,Meulaboh,ID,4.1363,96.1285,77.23,81,99,3.49,overcast clouds
207,Ponta Do Sol,PT,32.6667,-17.1,75.13,45,2,2.75,clear sky
208,Mariental,NA,-24.6333,17.9667,46.98,61,0,7.25,clear sky
209,College,US,64.8569,-147.8028,73.2,60,100,4.61,smoke
210,Imbituba,BR,-28.24,-48.6703,62.1,99,13,11.01,few clouds
211,Chuy,UY,-33.6971,-53.4616,61.25,93,75,15.93,light rain
212,Bandrele,YT,-12.9067,45.1914,76.75,65,40,18.41,scattered clouds
213,Tromso,NO,69.6496,18.957,52.38,82,100,5.75,overcast clouds
214,Sisimiut,GL,66.9395,-53.6735,40.48,88,100,6.62,overcast clouds
215,Ambunti,PG,-4.2365,142.8448,86.41,68,93,1.36,overcast clouds
216,Onega,RU,63.9061,38.1404,58.23,73,90,6.53,overcast clouds
217,Coihaique,CL,-45.5752,-72.0662,33.75,100,100,0.0,fog
218,Alugan,PH,12.2188,125.4808,84.87,68,28,3.67,scattered clouds
219,Alamosa,US,37.4695,-105.87,85.98,20,0,12.66,clear sky
220,Kernersville,US,36.1199,-80.0736,76.48,93,75,6.91,broken clouds
221,New Norfolk,AU,-42.7826,147.0587,50.92,75,5,2.93,clear sky
222,Springbok,ZA,-29.6643,17.8865,45.7,91,100,21.23,overcast clouds
223,Tilichiki,RU,60.4667,166.1,66.02,52,54,21.16,broken clouds
224,Point Fortin,TT,10.1833,-61.6833,79.9,84,100,13.49,overcast clouds
225,Saint-Georges,GD,12.0564,-61.7485,82.08,83,40,20.71,scattered clouds
226,Sri Aman,MY,1.2376,111.4621,75.25,100,20,2.3,few clouds
227,Carnarvon,AU,-24.8667,113.6333,66.72,82,100,19.37,overcast clouds
228,Pangnirtung,CA,66.1451,-65.7125,45.97,77,76,2.84,broken clouds
229,Serenje,ZM,-13.2325,30.2352,53.29,85,100,4.41,light rain
230,Padang,ID,-0.9492,100.3543,75.25,82,99,1.97,overcast clouds
231,Yerofey Pavlovich,RU,53.9667,121.9667,58.59,97,100,1.39,light rain
232,Port Macquarie,AU,-31.4333,152.9167,59.14,59,1,11.65,clear sky
233,Kalmunai,LK,7.4167,81.8167,83.7,59,100,8.9,overcast clouds
234,Dinard,FR,48.6314,-2.0614,62.98,81,0,10.36,clear sky
235,Bonoua,CI,5.2741,-3.595,78.42,88,99,7.0,light rain
236,Flinders,AU,-34.5833,150.8552,56.17,88,69,4.0,light rain
237,Turiacu,BR,-1.6633,-45.3717,72.86,95,43,2.82,scattered clouds
238,Vengerovo,RU,55.6848,76.7471,66.43,80,14,6.22,few clouds
239,Carballo,ES,43.213,-8.691,71.29,90,25,3.56,scattered clouds
240,Tazmalt,DZ,36.3868,4.3989,70.88,53,0,3.04,clear sky
241,Iquique,CL,-20.2208,-70.1431,60.84,77,100,3.2,overcast clouds
242,Kloulklubed,PW,7.0419,134.2556,81.1,75,94,13.13,overcast clouds
243,Urengoy,RU,65.9667,78.3667,58.53,64,0,9.24,clear sky
244,Okhotsk,RU,59.3833,143.3,67.03,63,100,8.14,overcast clouds
245,Aquiraz,BR,-3.9014,-38.3911,80.19,80,94,13.53,overcast clouds
246,Fuxin,CN,42.0156,121.6589,79.95,66,100,10.09,overcast clouds
247,Pevek,RU,69.7008,170.3133,32.2,97,100,17.38,snow
248,Murgab,TM,37.4966,61.9714,71.47,46,0,2.3,clear sky
249,Ipixuna,BR,-1.7625,-48.8043,76.71,81,99,3.96,moderate rain
250,Geraldton,AU,-28.7667,114.6,61.21,67,40,8.05,scattered clouds
251,Karratha,AU,-20.7377,116.8463,66.81,20,0,11.77,clear sky
252,Jorhat,IN,26.75,94.2167,80.91,89,12,4.18,few clouds
253,Liverpool,GB,53.4106,-2.9779,61.34,92,40,6.91,scattered clouds
254,Skegness,GB,53.1436,0.3363,57.27,79,3,7.25,clear sky
255,Simplicio Mendes,BR,-7.8539,-41.9103,70.92,58,0,5.64,clear sky
256,Port Hedland,AU,-20.3167,118.5667,57.25,44,0,5.75,clear sky
257,Krasnoyarskiy,RU,51.965,59.8967,63.9,73,37,6.49,scattered clouds
258,Rurrenabaque,BO,-14.4413,-67.5278,77.05,67,80,1.48,broken clouds
259,Hyvinkaa,FI,60.6333,24.8667,54.95,92,97,1.01,light rain
260,Lavrentiya,RU,65.5833,-171.0,51.53,79,100,10.89,overcast clouds
261,Wladyslawowo,PL,54.7909,18.4009,56.75,81,8,12.73,light rain
262,Nabire,ID,-3.3667,135.4833,83.97,70,95,1.92,overcast clouds
263,Luba,GQ,3.4568,8.5547,75.09,87,100,8.72,light rain
264,Gizo,SB,-8.103,156.8419,83.37,63,7,3.33,clear sky
265,Bonavista,CA,48.6499,-53.1147,55.26,82,89,13.44,overcast clouds
266,Arraial Do Cabo,BR,-22.9661,-42.0278,70.88,86,0,19.66,clear sky
267,Tlacolula,MX,16.9542,-96.4792,77.67,82,3,5.93,clear sky
268,Waco,US,31.5493,-97.1467,100.15,39,0,4.61,clear sky
269,Hay River,CA,60.8156,-115.7999,64.38,88,75,4.61,thunderstorm with light rain
270,Utete,TZ,-7.986,38.758,63.32,93,0,3.02,clear sky
271,Terney,RU,45.0503,136.6092,71.04,74,62,4.27,broken clouds
272,Talnakh,RU,69.4865,88.3972,45.21,73,49,16.35,scattered clouds
273,Tuy Hoa,VN,13.0833,109.3,81.59,77,97,12.35,overcast clouds
274,Camana,PE,-16.6228,-72.7111,61.81,84,69,6.76,broken clouds
275,Srednekolymsk,RU,67.45,153.6833,60.19,41,47,5.28,scattered clouds
276,Oranjemund,NA,-28.55,16.4333,56.01,88,82,19.08,light rain
277,Lorena,BR,-22.7308,-45.1247,59.0,76,3,2.19,clear sky
278,Svetlaya,RU,46.5389,138.3297,67.23,81,100,5.12,overcast clouds
279,Sitka,US,57.0531,-135.33,58.89,77,100,9.22,overcast clouds
280,Pacific Grove,US,36.6177,-121.9166,79.56,78,0,10.36,clear sky
281,Cidreira,BR,-30.1811,-50.2056,62.26,93,26,14.32,scattered clouds
282,Luderitz,NA,-26.6481,15.1594,54.34,93,33,4.99,light rain
283,Richards Bay,ZA,-28.783,32.0377,66.47,66,0,16.73,clear sky
284,Mapiripan,CO,2.8892,-72.1256,73.31,95,62,1.41,broken clouds
285,Choix,MX,26.7092,-108.3219,79.02,70,100,7.05,overcast clouds
286,Qiongshan,CN,20.0058,110.3542,84.18,89,40,8.95,scattered clouds
287,Samarai,PG,-10.6167,150.6667,82.67,73,52,9.48,broken clouds
288,Sorland,NO,67.667,12.6934,51.66,83,0,5.93,clear sky
289,Mehamn,NO,71.0357,27.8492,53.51,93,100,2.3,overcast clouds
290,Prieska,ZA,-29.6641,22.7474,55.22,47,6,6.91,clear sky
291,Deputatskiy,RU,69.3,139.9,55.92,52,67,6.24,broken clouds
292,Inhambane,MZ,-23.865,35.3833,65.23,79,0,6.55,clear sky
293,Victoria,HK,22.2855,114.1577,90.97,81,49,11.99,scattered clouds
294,Santa Marta,CO,11.2408,-74.199,86.05,71,75,4.61,broken clouds
295,Winnemucca,US,40.973,-117.7357,93.25,7,0,17.27,clear sky
296,Punta Alta,AR,-38.8759,-62.0736,52.81,67,100,6.44,overcast clouds
297,Harper,LR,4.375,-7.7169,75.99,76,100,9.84,overcast clouds
298,Qaqortoq,GL,60.7167,-46.0333,42.08,91,21,1.12,few clouds
299,Havoysund,NO,70.9963,24.6622,52.03,81,48,6.13,scattered clouds
300,Colares,PT,38.7992,-9.4469,80.46,78,0,10.29,clear sky
301,Piranshahr,IR,36.701,45.1413,66.13,42,0,5.37,clear sky
302,Touros,BR,-5.1989,-35.4608,75.74,85,14,11.32,few clouds
303,Arman,RU,59.7,150.1667,84.02,76,34,5.97,scattered clouds
304,Vilhena,BR,-12.7406,-60.1458,70.66,60,5,2.77,clear sky
305,Saint-Denis,FR,48.9167,2.3333,65.08,68,0,13.8,clear sky
306,Seydisehir,TR,37.4193,31.8453,59.02,56,0,2.95,clear sky
307,Khatanga,RU,71.9667,102.5,48.2,87,100,3.27,overcast clouds
308,Baykit,RU,61.67,96.37,64.99,91,96,6.08,overcast clouds
309,Nara,JP,34.6851,135.8049,83.97,67,52,1.72,broken clouds
310,Springfield,US,37.2153,-93.2982,79.66,77,100,11.5,overcast clouds
311,Henties Bay,NA,-22.116,14.2845,54.81,90,0,8.66,clear sky
312,Saldanha,ZA,-33.0117,17.9442,55.45,94,100,12.95,moderate rain
313,Nebolchi,RU,59.1239,33.3454,58.51,77,99,4.68,overcast clouds
314,Nhulunbuy,AU,-12.2333,136.7667,77.61,65,75,18.41,broken clouds
315,Boa Vista,BR,2.8197,-60.6733,82.38,69,75,5.75,broken clouds
316,Cabo San Lucas,MX,22.8909,-109.9124,96.62,43,20,9.22,few clouds
317,La Romana,DO,18.4273,-68.9728,82.76,78,75,6.91,broken clouds
318,Cayon,KN,17.35,-62.7333,81.93,89,20,17.27,few clouds
319,Drayton Valley,CA,53.2168,-114.9854,62.01,86,100,9.51,overcast clouds
320,Isernia,IT,41.6002,14.2382,60.82,72,0,6.17,clear sky
321,Clyde River,CA,70.4692,-68.5914,43.03,75,100,6.91,overcast clouds
322,Bandarbeyla,SO,9.4942,50.8122,77.76,65,36,29.42,scattered clouds
323,Mogadishu,SO,2.0371,45.3438,75.6,81,100,21.21,overcast clouds
324,Menongue,AO,-14.6585,17.691,48.7,64,2,4.25,clear sky
325,Mount Pleasant,US,32.7941,-79.8626,77.14,96,100,5.99,heavy intensity rain
326,Comodoro Rivadavia,AR,-45.8667,-67.5,48.06,71,75,11.5,light rain
327,Kamenka,RU,51.3223,42.7678,69.57,44,85,9.86,overcast clouds
328,Valparaiso,CL,-33.0393,-71.6273,55.04,89,100,18.41,overcast clouds
329,Ati,TD,13.2154,18.3353,84.52,50,16,11.88,few clouds
330,Ixtapa,MX,20.7,-105.2,86.23,79,75,11.5,broken clouds
331,Bhuj,IN,23.2667,69.6667,80.2,86,100,14.45,light rain
332,Tonstad,NO,58.6626,6.7169,50.92,78,41,15.37,scattered clouds
333,Kushmurun,KZ,52.4503,64.6311,65.7,75,9,6.35,clear sky
334,Praia Da Vitoria,PT,38.7333,-27.0667,66.76,88,75,7.76,light rain
335,Cherskiy,RU,68.75,161.3,49.21,53,96,12.57,overcast clouds
336,Vanimo,PG,-2.6741,141.3028,81.9,79,97,5.06,overcast clouds
337,Panlaitan,PH,12.1191,119.8486,80.47,84,100,7.36,overcast clouds
338,Port Keats,AU,-14.25,129.55,72.72,34,7,11.25,clear sky
339,Santa Teresa,VE,10.2341,-66.6631,72.64,99,67,2.48,broken clouds
340,Gayny,RU,60.3071,54.3241,60.93,89,83,2.08,broken clouds
341,Aguilas,ES,37.4063,-1.5829,75.47,71,0,3.44,clear sky
342,Conde,BR,-7.2597,-34.9075,72.86,94,100,10.36,overcast clouds
343,Carutapera,BR,-1.195,-46.02,74.55,94,100,4.56,overcast clouds
344,Cercal,PT,37.806,-8.6715,65.73,49,0,1.74,clear sky
345,Kahului,US,20.8947,-156.47,87.82,62,40,25.32,scattered clouds
346,Madingou,CG,-4.1536,13.55,67.93,80,69,3.51,broken clouds
347,Siocon,PH,7.7061,122.1353,82.0,78,99,9.53,overcast clouds
348,Tuatapere,NZ,-46.1333,167.6833,44.46,64,7,3.51,clear sky
349,Prince George,CA,53.9166,-122.753,66.25,61,75,6.91,broken clouds
350,Paldiski,EE,59.3567,24.0531,57.45,100,100,5.75,overcast clouds
351,Rwamagana,RW,-1.9487,30.4347,65.64,54,100,2.35,overcast clouds
352,Galle,LK,6.0367,80.217,80.06,85,100,13.4,light rain
353,Uturoa,PF,-16.7333,-151.4333,77.76,73,41,18.92,scattered clouds
354,Moron,AR,-34.6534,-58.6198,66.0,93,0,8.55,clear sky
355,Poum,NC,-20.2333,164.0167,78.55,83,93,21.79,overcast clouds
356,Quatre Cocos,MU,-20.2078,57.7625,66.31,66,33,20.2,scattered clouds
357,Olafsvik,IS,64.8945,-23.7142,51.19,91,100,16.17,overcast clouds
358,Iskateley,RU,67.6803,53.1512,53.26,81,75,4.54,broken clouds
359,Kroonstad,ZA,-27.6504,27.2349,45.21,72,0,5.48,clear sky
360,Burns Lake,CA,54.2331,-125.7533,56.62,47,86,12.39,overcast clouds
361,Morristown,US,36.214,-83.2949,80.65,82,0,0.0,clear sky
362,Panzhihua,CN,26.5851,101.7128,78.75,69,12,0.81,few clouds
363,Tifton,US,31.4505,-83.5085,76.96,94,40,3.44,scattered clouds
364,Mlonggo,ID,-6.5333,110.7,79.32,70,65,7.29,broken clouds
365,Denpasar,ID,-8.65,115.2167,80.26,83,75,12.66,broken clouds
366,Wewak,PG,-3.5534,143.6268,81.82,79,98,6.24,light rain
367,Marawi,PH,7.9986,124.2928,77.22,75,96,6.82,overcast clouds
368,Tecoanapa,MX,16.5167,-98.75,82.85,81,100,9.42,overcast clouds
369,Baoma,CN,31.4859,106.1128,86.9,70,46,4.59,scattered clouds
370,Radishchevo,RU,52.85,47.8833,63.7,82,92,2.51,overcast clouds
371,Nyrob,RU,60.733,56.7202,62.83,93,32,1.43,scattered clouds
372,Gorele,TR,41.0308,39.0031,69.67,85,13,3.18,few clouds
373,Yinchuan,CN,38.4681,106.2731,75.16,41,0,7.9,clear sky
374,Ban Nahin,LA,18.2418,104.2122,79.07,91,70,0.96,broken clouds
375,Luena,AO,-11.7833,19.9167,50.09,61,5,3.51,clear sky
376,Archidona,ES,37.0965,-4.3887,68.4,48,0,5.57,clear sky
377,Emba,KZ,48.8264,58.1442,69.57,54,73,7.96,broken clouds
378,Campina Verde,BR,-19.5356,-49.4864,67.51,44,6,6.2,clear sky
379,Dunmore Town,BS,25.5,-76.65,83.66,73,0,9.44,clear sky
380,Miraflores,MX,19.2167,-98.8083,68.65,82,77,3.38,broken clouds
381,Barreirinhas,BR,-2.7469,-42.8264,75.99,88,5,5.5,clear sky
382,Sawakin,SD,19.1059,37.3321,90.07,51,92,26.42,overcast clouds
383,Xiongzhou,CN,25.1167,114.3,86.58,74,13,3.04,few clouds
384,North Myrtle Beach,US,33.816,-78.68,85.28,88,0,19.57,clear sky
385,Aliwal North,ZA,-30.6937,26.7114,45.64,62,5,6.08,clear sky
386,Aklavik,CA,68.2191,-135.0107,67.23,50,18,15.14,few clouds
387,Lagoa,PT,39.05,-27.9833,67.53,71,98,9.19,overcast clouds
388,Port Elizabeth,ZA,-33.918,25.5701,61.32,79,0,24.16,clear sky
389,Naziya,RU,59.8,31.3833,56.44,1,86,4.05,overcast clouds
390,Ayan,RU,56.45,138.1667,60.94,84,99,9.73,overcast clouds
391,Marabba,SD,12.35,32.1833,80.11,67,100,10.42,overcast clouds
392,Moyamba,SL,8.1667,-12.4333,73.11,99,100,3.29,heavy intensity rain
393,Wilmington Island,US,32.0036,-80.9737,76.98,93,40,3.44,scattered clouds
394,Minab,IR,27.1467,57.0801,89.01,70,16,1.41,few clouds
395,Murdochville,CA,48.9583,-65.5006,52.68,56,94,14.18,overcast clouds
396,Miri,MY,4.4148,114.0089,77.14,83,20,2.3,few clouds
397,Rimbey,CA,52.6334,-114.2353,71.62,81,100,5.91,overcast clouds
398,Koungheul,SN,13.9833,-14.8,81.86,72,38,9.17,moderate rain
399,Saint-Augustin,CA,51.226,-58.6502,53.78,82,100,13.31,overcast clouds
400,Campbell River,CA,50.0163,-125.2446,66.6,68,75,3.44,broken clouds
401,Ukiah,US,39.1502,-123.2078,89.44,40,0,11.5,clear sky
402,Erzin,TR,36.9559,36.2,72.66,92,45,3.04,scattered clouds
403,Barabai,ID,-2.5833,115.3833,77.04,90,96,0.85,overcast clouds
404,Nkhotakota,MW,-12.9274,34.2961,63.43,70,1,4.41,clear sky
405,Iquitos,PE,-3.7481,-73.2472,75.24,94,75,3.44,broken clouds
406,Joshimath,IN,30.5667,79.5667,69.46,98,100,1.9,overcast clouds
407,Goundam,ML,16.4145,-3.6708,94.19,33,100,14.92,overcast clouds
408,Jacksonville,US,30.3322,-81.6556,80.6,91,100,0.0,mist
409,Winchester,GB,51.0651,-1.3187,62.69,69,0,4.23,clear sky
410,Upata,VE,8.0086,-62.3989,76.19,93,100,3.33,overcast clouds
411,Ocampo,MX,21.65,-101.5,71.69,38,12,17.92,few clouds
412,Lesnoy,RU,57.6198,63.0784,66.69,82,72,4.36,broken clouds
413,Ulladulla,AU,-35.35,150.4667,52.7,76,68,15.1,broken clouds
414,Bam,IR,29.106,58.357,87.26,11,32,5.82,scattered clouds
415,Jieshou,CN,33.2634,115.3611,90.61,64,87,13.98,overcast clouds
416,Honiara,SB,-9.4333,159.95,87.37,60,13,6.69,few clouds
417,Whitianga,NZ,-36.8333,175.7,62.35,77,18,1.81,few clouds
418,Lyuban,BY,52.7985,28.0048,53.89,90,62,5.64,broken clouds
419,Marsh Harbour,BS,26.5412,-77.0636,83.46,74,61,8.08,broken clouds
420,Shitanjing,CN,39.2342,106.3439,70.09,48,0,8.75,clear sky
421,Leh,IN,34.1667,77.5833,59.85,63,12,5.06,few clouds
422,Berbera,SO,10.4396,45.0143,86.56,44,100,37.33,overcast clouds
423,Fredericksburg,US,38.3032,-77.4605,71.82,84,100,4.61,overcast clouds
424,Ichhawar,IN,23.0167,77.0167,71.69,90,92,14.12,light rain
425,Camacha,PT,33.0833,-16.3333,63.82,94,40,14.97,scattered clouds
426,Trat,TH,12.5,102.5,79.92,97,100,3.8,overcast clouds
427,Taltal,CL,-25.4,-70.4833,58.73,74,45,1.68,scattered clouds
428,Sobolevo,RU,54.4299,31.8996,58.12,95,100,5.93,light rain
429,Yuanping,CN,38.7153,112.7575,69.89,82,100,0.54,overcast clouds
430,Sinazongwe,ZM,-17.2614,27.4618,61.52,58,0,2.48,clear sky
431,Alofi,NU,-19.0595,-169.9187,78.69,73,92,18.41,overcast clouds
432,Owando,CG,-0.4819,15.8999,71.92,82,70,3.29,broken clouds
433,Batagay,RU,67.6333,134.6333,60.39,56,100,5.86,overcast clouds
434,Ilulissat,GL,69.2167,-51.1,50.02,71,98,6.91,overcast clouds
435,Myaundzha,RU,63.0494,147.1858,73.42,37,96,8.46,overcast clouds
436,Ler,SS,8.3018,30.1418,69.51,88,100,3.29,overcast clouds
437,Labuhan,ID,-6.8844,112.2051,77.54,77,6,6.53,clear sky
438,Kruisfontein,ZA,-34.0033,24.7314,58.89,85,50,7.67,scattered clouds
439,Pitimbu,BR,-7.4706,-34.8086,73.99,84,69,15.46,broken clouds
440,Santa Rosa,PH,14.3122,121.1114,87.12,78,61,5.61,broken clouds
441,Tura,IN,25.5198,90.2201,78.78,85,16,4.12,few clouds
442,Garden City,US,42.3256,-83.331,80.85,30,20,6.91,smoke
443,Novo Aripuana,BR,-5.1206,-60.3797,77.29,75,60,1.9,broken clouds
444,Salalah,OM,17.0151,54.0924,77.09,100,100,9.22,light intensity drizzle
445,Gravelbourg,CA,49.8834,-106.5512,84.47,40,1,7.11,clear sky
446,Hovd,MN,48.0056,91.6419,62.85,54,34,6.04,scattered clouds
447,Guaruja,BR,-23.9931,-46.2564,65.28,90,85,2.1,overcast clouds
448,Kandrian,PG,-6.2167,149.55,85.86,66,24,8.72,few clouds
449,Tautira,PF,-17.7333,-149.15,76.84,73,93,16.89,overcast clouds
450,Tutoia,BR,-2.7619,-42.2744,77.09,87,41,8.46,scattered clouds
451,Zabol,AF,32.25,67.25,74.25,55,10,2.33,clear sky
452,Olga,RU,43.7444,135.2892,75.88,64,2,4.09,clear sky
453,Margate,GB,51.3813,1.3862,58.3,86,0,5.21,clear sky
454,Sharan,RU,54.8167,54.0,64.44,76,28,1.77,scattered clouds
455,Puerto Madero,MX,14.7208,-92.4215,86.2,79,40,6.91,scattered clouds
456,San Francisco,US,37.7749,-122.4194,81.75,77,20,19.57,few clouds
457,Maneadero,MX,31.7167,-116.5667,73.49,61,69,6.42,broken clouds
458,Port Blair,IN,11.6667,92.75,77.04,94,100,21.63,thunderstorm with light rain
459,Kontagora,NG,10.3999,5.4695,71.53,95,70,7.05,light rain
460,Shellbrook,CA,53.2168,-106.4011,76.23,69,1,9.78,clear sky
461,Sidi Ali,DZ,36.0998,0.4206,70.84,73,0,1.48,clear sky
462,Totness,SR,5.8833,-56.3167,75.61,92,100,8.7,overcast clouds
463,Tenenkou,ML,14.4572,-4.9169,92.59,42,99,13.24,overcast clouds
464,Te Anau,NZ,-45.4167,167.7167,40.82,73,38,2.89,scattered clouds
465,Hamilton,US,39.1834,-84.5333,80.55,82,0,8.05,clear sky
466,Iroquois Falls,CA,48.7669,-80.6831,62.22,69,0,3.6,clear sky
467,Chateaubelair,VC,13.2833,-61.25,81.12,83,40,14.97,scattered clouds
468,Raudeberg,NO,61.9875,5.1352,48.87,82,100,10.0,overcast clouds
469,Neuquen,AR,-38.9516,-68.0591,42.69,61,0,4.61,clear sky
470,Nisia Floresta,BR,-6.0911,-35.2086,75.58,93,37,7.34,scattered clouds
471,Soe,ID,-9.8607,124.284,66.15,91,100,4.16,overcast clouds
472,Belinskiy,RU,52.9647,43.4165,64.83,70,100,6.4,overcast clouds
473,Tubinskiy,RU,52.8892,58.2225,59.77,82,48,4.43,scattered clouds
474,Vao,NC,-22.6667,167.4833,76.5,74,89,20.07,overcast clouds
475,Port Dover,CA,42.7834,-80.1997,74.01,59,2,9.95,clear sky
476,Port Lincoln,AU,-34.7333,135.8667,52.54,66,100,17.02,overcast clouds
477,Luganville,VU,-15.5333,167.1667,82.4,72,39,9.78,scattered clouds
478,Cockburn Town,TC,21.4612,-71.1419,81.77,83,100,20.58,overcast clouds
479,Arivonimamo,MG,-19.0167,47.1833,51.85,76,98,17.09,overcast clouds
480,Ndele,CF,8.4109,20.6473,69.39,99,100,3.31,light rain
481,Conceicao Do Araguaia,BR,-8.2578,-49.2647,82.49,40,100,1.32,overcast clouds
482,Hervey Bay,AU,-25.2986,152.8535,60.03,65,30,14.0,scattered clouds
483,Muli,MV,2.9167,73.5667,81.86,77,100,14.38,overcast clouds
484,Hami,CN,42.8,93.45,86.97,16,88,11.05,overcast clouds
485,Grimshaw,CA,56.1834,-117.6027,69.42,37,75,27.63,broken clouds
486,Haines Junction,CA,60.7522,-137.5108,67.95,42,41,12.66,scattered clouds
487,Kargasok,RU,59.0556,80.8572,69.89,67,74,5.44,broken clouds
488,San Miguel,SV,13.4833,-88.1833,79.54,77,78,1.57,broken clouds
489,Mount Gambier,AU,-37.8333,140.7667,42.71,100,40,9.22,scattered clouds
490,Dongying,CN,37.4564,118.4856,81.3,70,100,13.27,light rain
491,Podgorica,ME,42.4411,19.2636,74.7,43,20,11.5,few clouds
492,Bathsheba,BB,13.2167,-59.5167,83.01,90,75,21.85,broken clouds
493,Vestmanna,FO,62.1564,-7.1664,50.92,100,100,4.61,light rain
494,Martigues,FR,43.4,5.05,77.09,43,0,19.57,clear sky
495,Staryy Oskol,RU,51.2967,37.8417,64.4,64,24,8.16,few clouds
496,Bucerias,MX,20.75,-105.3333,86.99,79,75,11.5,broken clouds
497,Alihe,CN,50.5667,123.7167,66.33,63,85,8.1,overcast clouds
498,Turinsk,RU,58.0458,63.696,68.16,81,61,4.09,broken clouds
499,Namatanai,PG,-3.6667,152.4333,84.7,62,17,7.16,few clouds
500,Doha,QA,25.2867,51.5333,96.78,27,0,3.44,clear sky
501,Tervel,BG,43.75,27.4,67.23,59,100,9.62,overcast clouds
502,High Rock,BS,26.6208,-78.2833,84.22,72,0,9.22,clear sky
503,San Rafael,AR,-34.6177,-68.3301,54.99,21,15,17.36,few clouds
504,Puri,IN,19.8,85.85,79.32,82,100,6.87,overcast clouds
505,Akdepe,TM,42.0551,59.3788,69.89,40,1,8.46,clear sky
506,Asekeyevo,RU,53.5742,52.7972,64.76,78,8,2.13,clear sky
507,Eyrarbakki,IS,63.863,-21.1481,51.85,90,100,15.17,overcast clouds
508,Vakhrushev,RU,48.9833,142.9667,60.31,87,100,8.03,overcast clouds
509,Crixas,BR,-14.5489,-49.9692,70.84,35,0,5.64,clear sky
510,Pangoa,PE,-12.1167,-73.0,70.25,77,3,1.77,clear sky
511,Dzerzhinsk,RU,56.2389,43.4631,60.62,100,40,2.24,scattered clouds
512,Nagorsk,RU,59.3172,50.8078,60.53,94,88,2.01,overcast clouds
513,Yubari,JP,43.0378,141.9578,79.32,72,83,6.73,broken clouds
514,Santa Fe,AR,-31.6333,-60.7,75.0,69,0,5.99,light rain
515,Soyo,AO,-6.1349,12.3689,69.15,91,97,6.62,overcast clouds
516,Los Llanos De Aridane,ES,28.6585,-17.9182,67.75,88,0,20.71,clear sky
517,San Andres,CO,12.5847,-81.7006,84.22,79,75,10.36,broken clouds
518,Korem,ET,12.5058,39.5228,55.96,82,100,4.83,moderate rain
519,Biak,ID,-0.9131,122.8766,78.31,85,92,5.12,overcast clouds
520,Ambon,ID,-3.6954,128.1814,77.14,88,40,3.44,light rain
521,Dwarka,IN,22.2394,68.9678,82.51,82,100,23.4,overcast clouds
522,Mackenzie,CA,55.2999,-123.1698,66.42,48,75,11.5,broken clouds
523,Eirunepe,BR,-6.6603,-69.8736,77.65,68,60,2.26,broken clouds
524,Hualmay,PE,-11.0964,-77.6139,61.88,85,56,10.25,broken clouds
525,Baghdad,IQ,33.3406,44.4009,93.34,18,3,15.99,clear sky
526,Bull Savanna,JM,17.8868,-77.5902,77.4,76,100,10.45,overcast clouds
527,Humaita,BR,-7.5061,-63.0208,78.4,64,57,1.32,broken clouds
528,Luanda,AO,-8.8368,13.2343,69.8,83,75,6.91,broken clouds
529,Dalby,AU,-27.1833,151.2667,53.62,53,0,7.02,clear sky
530,Atbasar,KZ,51.8,68.3333,63.97,75,20,7.7,few clouds
531,Bukachacha,RU,52.9833,116.9167,65.16,59,75,6.91,broken clouds
532,Garowe,SO,8.4054,48.4845,75.13,58,73,26.82,broken clouds
533,Tazovskiy,RU,67.4667,78.7,48.99,76,11,8.37,few clouds
534,Bundaberg,AU,-24.85,152.35,58.86,56,0,9.28,clear sky
535,Laguna,US,38.421,-121.4238,97.32,31,0,9.22,clear sky
536,Tabuk,PH,17.4189,121.4443,82.54,76,100,4.41,overcast clouds
537,Muroto,JP,33.2833,134.15,79.72,83,17,6.49,few clouds
538,Kokopo,PG,-4.352,152.2633,85.19,52,10,6.85,clear sky
539,Vanderbijlpark,ZA,-26.7117,27.838,47.39,68,0,5.37,clear sky
540,Port Hardy,CA,50.6996,-127.4199,59.18,88,100,3.44,overcast clouds
541,Matamoros,MX,25.5333,-103.25,96.91,20,40,8.05,scattered clouds
542,Molepolole,BW,-24.4066,25.4951,49.75,60,0,6.8,clear sky
543,Rocha,UY,-34.4833,-54.3333,62.24,94,99,15.35,moderate rain
544,Sawtell,AU,-30.3833,153.1,59.02,63,0,5.75,clear sky
545,Paamiut,GL,61.994,-49.6678,39.99,95,29,15.5,scattered clouds
546,Ngunguru,NZ,-35.6167,174.5,64.42,71,100,3.27,overcast clouds
547,Horki,BY,54.2861,30.9842,57.76,94,100,6.73,overcast clouds
548,Wanning,CN,18.8003,110.3967,82.56,85,93,4.41,overcast clouds
549,Chara,RU,56.9064,118.2631,52.56,97,100,1.7,moderate rain
550,Makhachkala,RU,42.9764,47.5024,68.02,61,0,10.65,clear sky
551,Tamandare,BR,-8.7597,-35.1047,74.48,85,2,14.2,clear sky
552,Acapulco,MX,16.8634,-99.8901,84.02,79,75,14.97,broken clouds
553,Rio Branco,BR,-9.9747,-67.81,79.41,78,0,0.0,clear sky
554,Saquena,PE,-4.6667,-73.5167,73.35,96,100,2.33,overcast clouds
555,Bata,GQ,1.8639,9.7658,74.62,86,100,8.37,light rain
556,Ivanivka,UA,46.7208,34.553,68.61,63,79,6.44,broken clouds
557,Russell,US,32.3502,-85.1999,78.4,94,0,0.0,clear sky
558,Sechura,PE,-5.5569,-80.8222,64.83,75,66,17.18,broken clouds
559,Prince Rupert,CA,54.3161,-130.3201,59.09,89,100,18.41,overcast clouds
560,Bilma,NE,18.6853,12.9164,87.82,32,0,7.29,clear sky
561,Paramonga,PE,-10.6667,-77.8333,61.65,88,46,9.86,scattered clouds
562,Visnes,NO,59.3556,5.2242,53.65,76,100,16.11,overcast clouds
563,Harwich,GB,51.9419,1.2844,58.24,85,0,1.36,clear sky
564,Terrace Bay,CA,48.7834,-87.1,48.6,81,38,2.21,scattered clouds
565,Opoczno,PL,51.3757,20.2783,53.91,91,11,5.93,few clouds
566,Chuguyevka,RU,44.1653,133.8633,78.51,61,42,2.13,scattered clouds
567,Tiznit,MA,29.5833,-9.5,88.66,19,14,3.06,few clouds
568,Libertador General San Martin,AR,-23.8064,-64.7876,70.39,52,100,3.02,overcast clouds
569,Zaysan,KZ,47.4667,84.8667,69.26,44,7,4.61,clear sky
570,Sukhumi,GE,43.0033,41.0153,71.06,62,0,3.89,clear sky
571,Kutulik,RU,53.3508,102.7839,55.44,94,100,5.61,overcast clouds
572,Avera,US,33.194,-82.5271,78.85,74,89,7.7,overcast clouds
573,Alekseyevsk,RU,57.8406,108.3492,62.37,67,100,5.37,overcast clouds
574,Black Diamond,US,47.3087,-122.0032,78.71,51,10,4.0,clear sky
575,Chabahar,IR,25.2919,60.643,84.25,81,90,9.24,overcast clouds
576,Dunn,US,44.95,-91.8835,80.56,72,78,4.99,broken clouds
577,Palaikastron,GR,35.2,26.25,72.88,79,0,21.56,clear sky
578,Gimli,CA,50.6336,-96.9907,73.42,83,0,9.22,clear sky
579,Rengasdengklok,ID,-6.1592,107.2981,77.56,74,37,4.7,scattered clouds
580,Pijijiapan,MX,15.7011,-93.23,79.86,90,6,0.85,clear sky
581,Severodvinsk,RU,64.5635,39.8302,50.11,71,100,6.4,overcast clouds
582,Moron De La Frontera,ES,37.1208,-5.454,80.4,41,0,5.75,clear sky
583,Tianpeng,CN,30.9866,103.9393,85.73,72,100,3.67,overcast clouds
584,Hauterive,FR,46.0901,3.4459,57.96,81,1,0.94,clear sky
585,Matay,EG,28.419,30.7792,80.76,42,7,7.29,clear sky
586,Fonseca,CO,10.8861,-72.8487,77.81,88,98,3.76,overcast clouds
587,Lunenburg,CA,44.3835,-64.3155,66.25,57,0,10.36,clear sky
588,Montefiascone,IT,42.5393,12.0362,62.47,62,0,7.76,clear sky
589,Koutsouras,GR,35.0339,25.9469,77.11,63,0,12.57,clear sky
590,Hapur,IN,28.7167,77.7833,80.08,73,100,6.06,overcast clouds
591,Lasa,IT,46.6166,10.7002,65.28,91,44,6.17,scattered clouds
592,Qarayeri,AZ,40.7886,46.3066,70.68,64,20,6.91,few clouds
593,Tezu,IN,27.9167,96.1667,82.65,80,16,0.96,few clouds
594,Riachao,BR,-7.3619,-46.6172,74.01,43,3,4.68,clear sky
595,Lamesa,US,32.7376,-101.951,96.53,29,24,20.76,few clouds
596,Namuac,PH,18.6109,121.1657,85.48,72,100,4.94,overcast clouds
597,Male,MV,4.1748,73.5089,80.55,89,75,12.66,broken clouds
598,Nemuro,JP,43.3236,145.575,58.19,99,100,16.13,overcast clouds
599,Rincon,US,32.296,-81.2354,76.86,94,100,5.75,overcast clouds
600,Bure,ET,10.7,37.0667,55.44,96,100,1.1,overcast clouds
601,Bilibino,RU,68.0546,166.4372,39.43,93,100,5.23,overcast clouds
602,Kharp,RU,66.8014,65.8081,62.67,64,1,8.66,clear sky
603,Parfino,RU,57.9731,31.6481,59.04,86,100,2.77,overcast clouds
604,Bahce,TR,37.1972,36.5766,66.81,94,43,6.22,scattered clouds
605,Saint-Joseph,RE,-21.3667,55.6167,64.78,73,43,15.37,scattered clouds
606,Port Shepstone,ZA,-30.7414,30.455,61.81,50,0,5.88,clear sky
607,Berdigestyakh,RU,62.0989,126.6992,55.13,97,100,5.37,light rain
608,Nandigama,IN,16.7833,80.3,75.87,82,100,19.95,light rain
609,Sinnamary,GF,5.3833,-52.95,77.68,87,100,7.72,overcast clouds
610,Prabumulih,ID,-3.45,104.25,75.99,81,31,3.51,scattered clouds
611,Fort Nelson,CA,58.8053,-122.7002,63.99,77,75,5.75,light intensity shower rain
612,Gunjur,GM,13.2019,-16.7339,79.29,81,77,10.13,broken clouds
613,Balykshi,KZ,47.0667,51.8667,68.0,49,0,8.95,clear sky
614,Mahajanga,MG,-15.7167,46.3167,62.62,72,0,5.75,clear sky
615,Diamantino,BR,-14.4086,-56.4461,75.09,44,100,4.74,overcast clouds
616,Port-Gentil,GA,-0.7193,8.7815,72.39,80,23,14.0,few clouds
617,Meadow Lake,US,34.8014,-106.5436,81.88,63,100,7.02,overcast clouds
618,Usakos,NA,-22.0,15.6,46.24,96,12,6.04,few clouds
619,Fairbanks,US,64.8378,-147.7164,73.6,62,0,4.61,haze
620,Kayerkan,RU,69.3497,87.7602,44.53,87,75,16.71,broken clouds
621,Aksu,CN,41.1231,80.2644,77.65,33,100,5.12,overcast clouds
622,Viedma,AR,-40.8135,-62.9967,47.62,64,100,8.77,overcast clouds
623,Jena,DE,50.9333,11.5833,55.17,89,68,6.02,broken clouds
624,Grand Gaube,MU,-20.0064,57.6608,66.6,65,23,25.12,few clouds
625,Ituporanga,BR,-27.4144,-49.6025,57.81,98,11,1.77,few clouds
626,Chiang Klang,TH,19.2938,100.8617,76.06,97,100,0.43,overcast clouds
627,Monterey,US,36.2505,-121.2516,86.18,31,0,16.06,clear sky
628,Pemba,MZ,-12.974,40.5178,71.29,78,1,8.84,light rain
629,Invermere,CA,50.5167,-116.0354,76.42,31,30,11.43,scattered clouds
630,Palana,RU,59.1167,159.9667,54.12,89,72,4.7,broken clouds
631,Venice,US,27.0998,-82.4543,86.99,76,0,4.61,clear sky
632,Awjilah,LY,29.1081,21.2869,76.62,55,0,12.73,clear sky
633,Brigantine,US,39.4101,-74.3646,72.0,88,20,3.44,few clouds
634,Medina,SA,24.4686,39.6142,90.03,12,0,8.05,clear sky
635,Moose Factory,CA,51.2585,-80.6094,69.8,60,0,5.75,clear sky
636,Chicama,PE,-7.8447,-79.1469,61.34,80,39,7.05,scattered clouds
637,Verkhoyansk,RU,67.5447,133.385,59.94,58,100,3.76,overcast clouds
638,Toora-Khem,RU,52.4675,96.11,62.92,54,2,1.68,clear sky
639,Surt,LY,31.2089,16.5887,78.26,62,0,9.46,clear sky
640,Vandra,EE,58.6481,25.0361,51.46,97,74,4.68,broken clouds
641,Darnah,LY,32.767,22.6367,77.09,71,0,18.61,clear sky
642,Bac Giang,VN,21.2667,106.2,80.67,76,22,4.09,few clouds
643,Shestakovo,RU,56.4915,103.96,61.65,79,17,4.7,few clouds
644,Saladoblanco,CO,1.9924,-76.0434,60.21,92,76,3.65,broken clouds
645,Yar-Sale,RU,66.8333,70.8333,59.27,67,92,8.84,overcast clouds
646,Christchurch,NZ,-43.5333,172.6333,48.42,68,100,6.91,overcast clouds
647,Kumta,IN,14.4167,74.4,79.27,85,100,18.57,overcast clouds
648,Nagapattinam,IN,10.7667,79.8333,82.51,65,100,11.59,light rain
649,Lata,PT,40.1629,-8.3327,66.33,56,0,1.97,clear sky
650,Broome,US,42.2506,-75.833,70.18,45,0,11.5,clear sky
651,Vostok,RU,46.4856,135.8833,74.21,57,100,1.3,overcast clouds
652,Riachao Das Neves,BR,-11.7461,-44.91,70.74,50,50,4.72,scattered clouds
653,Houma,US,29.5958,-90.7195,87.8,74,0,8.05,clear sky
654,Dieppe,FR,49.75,1.1667,57.38,92,0,7.0,clear sky
655,Kalikino,RU,52.9493,39.8269,63.99,74,84,7.2,broken clouds
656,Ginir,ET,7.1333,40.7,55.15,88,100,8.57,light rain
657,Lashio,MM,22.9333,97.75,71.85,95,55,0.4,broken clouds
658,Waipawa,NZ,-41.4122,175.5153,45.52,64,100,5.88,overcast clouds
659,Lompoc,US,34.6391,-120.4579,79.7,73,0,23.0,clear sky
660,Cochrane,CA,51.1834,-114.4687,76.91,28,20,8.05,few clouds
661,Kollam,IN,8.8833,76.6,77.68,89,93,12.68,overcast clouds
662,Mount Isa,AU,-20.7333,139.5,58.77,36,0,11.5,clear sky
663,Asosa,ET,10.0667,34.5333,59.05,93,100,2.77,overcast clouds
664,Malumfashi,NG,11.7853,7.6218,73.6,81,100,10.13,moderate rain
665,Sabnova,RU,42.0762,48.248,69.8,57,0,3.0,clear sky
666,Taloqan,AF,36.7361,69.5345,76.64,20,0,5.82,clear sky
667,Narsaq,GL,60.9167,-46.05,52.02,93,30,2.08,scattered clouds
668,Kenora,CA,49.8167,-94.4337,74.37,68,75,5.75,broken clouds
669,Sur,OM,22.5667,59.5289,83.25,81,87,2.75,light rain
670,Chico,US,39.7285,-121.8375,96.22,24,0,7.76,clear sky
671,Shar,KZ,49.5886,81.0453,65.66,61,28,4.41,scattered clouds
672,Jiazi,CN,22.8779,116.067,84.85,79,16,6.08,few clouds
673,Weihai,CN,37.5017,122.1136,77.85,75,82,2.51,broken clouds
674,Manavalakurichi,IN,8.1333,77.3,78.35,86,100,16.17,overcast clouds
675,Guna,IN,24.65,77.3167,80.44,78,51,7.34,broken clouds
676,La Paz,BO,-16.5,-68.15,44.58,75,40,4.61,scattered clouds
677,La Cruz,MX,23.9167,-106.9,85.55,62,85,7.92,overcast clouds
678,Rafraf,TN,37.1904,10.1837,71.91,70,0,14.79,clear sky
679,Nantucket,US,41.2835,-70.0995,69.91,84,0,6.91,clear sky
680,Calbuco,CL,-41.768,-73.1273,45.61,88,100,16.24,overcast clouds
681,Greenfield,US,42.9614,-88.0126,73.26,59,0,9.22,clear sky
682,Coquimbo,CL,-29.9533,-71.3436,53.33,100,100,2.3,overcast clouds
683,Muros,ES,42.7762,-9.0603,70.16,81,99,4.0,overcast clouds
684,Nyurba,RU,63.2842,118.3319,57.61,84,100,2.04,overcast clouds
685,Nizhnevartovsk,RU,60.9344,76.5531,69.82,78,0,11.18,clear sky
686,Aguimes,ES,27.9054,-15.4461,73.65,60,0,23.02,clear sky
687,Tarata,BO,-17.6167,-66.0167,62.02,73,93,5.95,overcast clouds
688,Severnyy,RU,50.677,36.5532,64.44,77,0,6.71,clear sky
689,George,ZA,-33.963,22.4617,57.63,73,95,1.77,overcast clouds
690,Beinamar,TD,8.6698,15.3813,72.0,93,100,3.38,overcast clouds
691,Ngora,UG,1.4314,33.7772,64.65,83,95,3.13,light rain
692,Mitsamiouli,KM,-11.3847,43.2844,75.88,67,0,12.28,clear sky
693,Kudahuvadhoo,MV,2.6708,72.8944,82.29,74,89,14.76,moderate rain
694,Vernon,CA,50.2581,-119.2691,82.92,37,100,1.99,overcast clouds
695,Rayevskiy,RU,54.0658,54.9468,63.68,86,76,1.59,light rain
696,Sayyan,YE,15.1718,44.3244,59.56,64,98,5.19,overcast clouds
697,Hobyo,SO,5.3505,48.5268,75.97,75,97,24.83,overcast clouds
698,Arica,CL,-18.475,-70.3042,62.15,77,100,5.75,overcast clouds
699,Faya,SA,18.3851,42.4509,64.51,30,100,9.6,overcast clouds
700,Kapoeta,SS,4.7717,33.5903,72.23,74,91,6.29,overcast clouds
701,Batemans Bay,AU,-35.7167,150.1833,56.1,82,100,11.23,overcast clouds
702,Jimenez,MX,28.3333,-105.4,96.69,16,76,14.14,broken clouds
703,Belmonte,BR,-15.8631,-38.8828,71.56,82,1,7.63,clear sky
704,Jalu,LY,29.0331,21.5482,77.4,52,0,13.47,clear sky
705,Sabha,LY,27.0377,14.4283,83.97,38,10,17.65,clear sky
706,Kargat,RU,55.1956,80.2811,66.81,74,19,7.02,few clouds
707,Kralendijk,BQ,12.15,-68.2667,82.38,83,20,14.97,few clouds
708,Penha,BR,-26.7694,-48.6458,62.47,94,75,8.05,mist
709,Lotofaga,WS,-13.9764,-171.8578,85.78,76,46,14.25,light rain
710,Upornaya,RU,44.3914,41.0196,61.29,89,0,4.27,clear sky
711,Glendive,US,47.1053,-104.7125,89.22,51,0,9.22,clear sky
712,Beringovskiy,RU,63.05,179.3167,48.63,90,100,9.69,light rain
713,Magistralnyy,RU,56.1725,107.4458,60.24,83,100,6.64,light rain
714,Hollabrunn,AT,48.55,16.0833,61.45,94,98,1.01,overcast clouds
715,Verkhnyaya Toyma,RU,62.2349,44.9985,57.99,76,98,2.19,overcast clouds
716,Diebougou,BF,10.9667,-3.25,75.25,83,100,8.08,overcast clouds
717,Uray,RU,60.1247,64.7758,69.48,76,10,3.62,clear sky
718,Caravelas,BR,-17.7125,-39.2481,70.32,84,1,6.4,clear sky
719,Waw,SS,7.7029,27.9953,71.28,87,100,3.44,overcast clouds
